name,category,tags,states,cities,area,address,email,phone,website,lat,lng,isSponsored,sponsorTier,sponsorStart,sponsorEnd,adLink,adNote
Spiderweb Ponder Entertainment,media,"film, cinema","NSW, VIC, QLD, SA, WA, NT, TAS, ACT",,,,,+61 482 022 932,www.ponder.productions,,,1,gold,2025-08-01,2025-12-31,https://www.ponder.productions,全澳放映港產片
Phyllis Wu,leisure,"Balloon, 派對藝術",VIC,,,,BalloonPhyStyle@gmail.com,0431 189 521,,,,,,,,,
漢記甜品 Hon Kee HK Dessert,food_drink,Dessert,NSW,Sydney,Eastwood,"Shop 2, 239 Rowe Street, Eastwood, NSW, Australia, New South Wales",HonKeeHKDessert@gmail.com,,,-33.792018,151.078362,,,,,,
GOG supermarket,retail,Supermarket,NSW,Sydney,Crows Nest,"Shop G01, 162 Willoughby Road, Crows Nest, 2065, Sydney, NSW, Australia, New South Wales",hello@gogsupermarket.com.au,+61 451 988 148,gogsupermarket.com.au,-33.82262,151.200661,,,,,,
Tea Square Cafe 茶仔,food_drink,Hong Kong Restaurant,NSW,Sydney,Chatswood,"Shop 210, 65 Albert Ave, Chatswood, NSW, Australia",,+61 402 726 179,,-33.7979628,151.1823175,,,,,,
Mui G妹記,food_drink,Hong Kong Restaurant,QLD,Brisbane,Sunnybank,"22A/342 McCullough Street, Brisbane, QLD, Australia",hello@muigkitchen.com.au,+61 423 578 848,muigkitchen.com.au,-27.57155609,153.061264,,,,,,
Xpress.Gold Coast澳洲黃金海岸包車,leisure,"Travel & Transportation, Travel Service",QLD,Gold Coast,,,gcd269@gmail.com,+61 401 610 813,,,,,,,,,
榴槤俱樂部 Durian Club,media,"radio, podcast, media",QLD,Brisbane,,,4ebdurianclub@gmail.com,,4eb.org.au/shows/durian-club-cantonese,,,,,,,,
Jo & Co. Cafe,food_drink,Cafe,QLD,Brisbane,Drewvale,"5/27 Illaweena St, Drewvale QLD 4116",,0432 658 822,https://joandcocafe.com.au/,-27.6394841,153.0517798,,,,,,